{"businesses":[{"id":"ysqgdbSrezXgVwER2kQWKA","alias":"julianas-brooklyn-3","name":"Juliana's","image_url":"https://s3-media2.fl.yelpcdn.com/bphoto/od36nFW220aMFAnNP00ocw/o.jpg","is_closed":false,"url":"https://www.yelp.com/biz/julianas-brooklyn-3?adjust_creative=XVnp9EtWnu6qdVDNK-fjmw&utm_campaign=yelp_api_v3&utm_medium=api_v3_business_search&utm_source=XVnp9EtWnu6qdVDNK-fjmw","review_count":2701,"categories":[{"alias":"pizza","title":"Pizza"}],"rating":4.5,"coordinates":{"latitude":40.70274718768062,"longitude":-73.99343490196397},"transactions":["delivery"],"price":"$$","location":{"address1":"19 Old Fulton St","address2":"","address3":"","city":"Brooklyn","zip_code":"11201","country":"US","state":"NY","display_address":["19 Old Fulton St","Brooklyn, NY 11201"]},"phone":"+17185966700","display_phone":"(718) 596-6700","distance":308.56984360837544},{"id":"zj8Lq1T8KIC5zwFief15jg","alias":"prince-street-pizza-new-york-2","name":"Prince Street Pizza","image_url":"https://s3-media4.fl.yelpcdn.com/bphoto/PfI8oV4ct9ZJZNtUhSS8DQ/o.jpg","is_closed":false,"url":"https://www.yelp.com/biz/prince-street-pizza-new-york-2?adjust_creative=XVnp9EtWnu6qdVDNK-fjmw&utm_campaign=yelp_api_v3&utm_medium=api_v3_business_search&utm_source=XVnp9EtWnu6qdVDNK-fjmw","review_count":5077,"categories":[{"alias":"pizza","title":"Pizza"},{"alias":"italian","title":"Italian"}],"rating":4.5,"coordinates":{"latitude":40.72308755605564,"longitude":-73.99453001177575},"transactions":["pickup","delivery"],"price":"$","location":{"address1":"27 Prince St","address2":null,"address3":"","city":"New York","zip_code":"10012","country":"US","state":"NY","display_address":["27 Prince St","New York, NY 10012"]},"phone":"+12129664100","display_phone":"(212) 966-4100","distance":1961.8771417367063},{"id":"WG639VkTjmK5dzydd1BBJA","alias":"rubirosa-new-york-2","name":"Rubirosa","image_url":"https://s3-media3.fl.yelpcdn.com/bphoto/l0Phrnhhj78RFiDhLIOUyQ/o.jpg","is_closed":false,"url":"https://www.yelp.com/biz/rubirosa-new-york-2?adjust_creative=XVnp9EtWnu6qdVDNK-fjmw&utm_campaign=yelp_api_v3&utm_medium=api_v3_business_search&utm_source=XVnp9EtWnu6qdVDNK-fjmw","review_count":3192,"categories":[{"alias":"italian","title":"Italian"},{"alias":"pizza","title":"Pizza"}],"rating":4.5,"coordinates":{"latitude":40.722766,"longitude":-73.996233},"transactions":["pickup"],"price":"$$","location":{"address1":"235 Mulberry St","address2":"","address3":"","city":"New York","zip_code":"10012","country":"US","state":"NY","display_address":["235 Mulberry St","New York, NY 10012"]},"phone":"+12129650500","display_phone":"(212) 965-0500","distance":1932.9467701334759},{"id":"v1DHGRNCH9247WLYoaoA9A","alias":"l-industrie-pizzeria-brooklyn","name":"L'industrie Pizzeria","image_url":"https://s3-media3.fl.yelpcdn.com/bphoto/KKB2Trak1Ou3bqJePe8RmQ/o.jpg","is_closed":false,"url":"https://www.yelp.com/biz/l-industrie-pizzeria-brooklyn?adjust_creative=XVnp9EtWnu6qdVDNK-fjmw&utm_campaign=yelp_api_v3&utm_medium=api_v3_business_search&utm_source=XVnp9EtWnu6qdVDNK-fjmw","review_count":1135,"categories":[{"alias":"pizza","title":"Pizza"}],"rating":4.5,"coordinates":{"latitude":40.71162,"longitude":-73.95783},"transactions":["delivery"],"price":"$","location":{"address1":"254 S 2nd St","address2":"","address3":"","city":"Brooklyn","zip_code":"11211","country":"US","state":"NY","display_address":["254 S 2nd St","Brooklyn, NY 11211"]},"phone":"+17185990002","display_phone":"(718) 599-0002","distance":3145.016041338447},{"id":"uc5qQMzs96rzjK27epDCug","alias":"joes-pizza-new-york-4","name":"Joe's Pizza","image_url":"https://s3-media3.fl.yelpcdn.com/bphoto/FKjd9RGuNH-ixnd7AQxj0g/o.jpg","is_closed":false,"url":"https://www.yelp.com/biz/joes-pizza-new-york-4?adjust_creative=XVnp9EtWnu6qdVDNK-fjmw&utm_campaign=yelp_api_v3&utm_medium=api_v3_business_search&utm_source=XVnp9EtWnu6qdVDNK-fjmw","review_count":3071,"categories":[{"alias":"pizza","title":"Pizza"}],"rating":4,"coordinates":{"latitude":40.73060076,"longitude":-74.00215997},"transactions":["delivery"],"price":"$","location":{"address1":"7 Carmine St","address2":"","address3":"","city":"New York","zip_code":"10014","country":"US","state":"NY","display_address":["7 Carmine St","New York, NY 10014"]},"phone":"+12123661182","display_phone":"(212) 366-1182","distance":2874.702513677348},{"id":"KEEXuHCYhsQJ-zpJhu98bA","alias":"joes-pizza-new-york-148","name":"Joe's Pizza","image_url":"https://s3-media4.fl.yelpcdn.com/bphoto/FluVgKezP5ifs7greHV8Qg/o.jpg","is_closed":false,"url":"https://www.yelp.com/biz/joes-pizza-new-york-148?adjust_creative=XVnp9EtWnu6qdVDNK-fjmw&utm_campaign=yelp_api_v3&utm_medium=api_v3_business_search&utm_source=XVnp9EtWnu6qdVDNK-fjmw","review_count":2058,"categories":[{"alias":"pizza","title":"Pizza"}],"rating":4,"coordinates":{"latitude":40.7547,"longitude":-73.98696},"transactions":["pickup","delivery"],"price":"$","location":{"address1":"1435 Broadway","address2":"","address3":null,"city":"New York","zip_code":"10018","country":"US","state":"NY","display_address":["1435 Broadway","New York, NY 10018"]},"phone":"+16465594878","display_phone":"(646) 559-4878","distance":5508.746902433722},{"id":"0UdC0VYX6aAvLiOcpR4MVQ","alias":"joes-pizza-new-york-7","name":"Joe's Pizza","image_url":"https://s3-media2.fl.yelpcdn.com/bphoto/QXu6RGXGrtRWssVmFE7KpQ/o.jpg","is_closed":false,"url":"https://www.yelp.com/biz/joes-pizza-new-york-7?adjust_creative=XVnp9EtWnu6qdVDNK-fjmw&utm_campaign=yelp_api_v3&utm_medium=api_v3_business_search&utm_source=XVnp9EtWnu6qdVDNK-fjmw","review_count":1075,"categories":[{"alias":"pizza","title":"Pizza"}],"rating":4,"coordinates":{"latitude":40.73331,"longitude":-73.98763},"transactions":["pickup","delivery"],"price":"$","location":{"address1":"150 E 14th St","address2":"","address3":"","city":"New York","zip_code":"10003","country":"US","state":"NY","display_address":["150 E 14th St","New York, NY 10003"]},"phone":"+12123889474","display_phone":"(212) 388-9474","distance":3140.2631090277323},{"id":"WIhm0W9197f_rRtDziq5qQ","alias":"lombardis-pizza-new-york-4","name":"Lombardi's Pizza","image_url":"https://s3-media1.fl.yelpcdn.com/bphoto/lBq1IBr5ZEI3nJBCwHYxcg/o.jpg","is_closed":false,"url":"https://www.yelp.com/biz/lombardis-pizza-new-york-4?adjust_creative=XVnp9EtWnu6qdVDNK-fjmw&utm_campaign=yelp_api_v3&utm_medium=api_v3_business_search&utm_source=XVnp9EtWnu6qdVDNK-fjmw","review_count":6619,"categories":[{"alias":"pizza","title":"Pizza"}],"rating":4,"coordinates":{"latitude":40.7215934960083,"longitude":-73.9955956044561},"transactions":["pickup","delivery"],"price":"$$","location":{"address1":"32 Spring St","address2":"","address3":"","city":"New York","zip_code":"10012","country":"US","state":"NY","display_address":["32 Spring St","New York, NY 10012"]},"phone":"+12129417994","display_phone":"(212) 941-7994","distance":1798.9959778083735},{"id":"2ggi1luerd3Mf_C82JvCYg","alias":"grimaldis-pizzeria-brooklyn-4","name":"Grimaldi's Pizzeria","image_url":"https://s3-media1.fl.yelpcdn.com/bphoto/Ek1cwe4Dh74lu2P4BgHsFQ/o.jpg","is_closed":false,"url":"https://www.yelp.com/biz/grimaldis-pizzeria-brooklyn-4?adjust_creative=XVnp9EtWnu6qdVDNK-fjmw&utm_campaign=yelp_api_v3&utm_medium=api_v3_business_search&utm_source=XVnp9EtWnu6qdVDNK-fjmw","review_count":4968,"categories":[{"alias":"pizza","title":"Pizza"},{"alias":"desserts","title":"Desserts"},{"alias":"beer_and_wine","title":"Beer, Wine & Spirits"}],"rating":3.5,"coordinates":{"latitude":40.7026459,"longitude":-73.9932413},"transactions":["pickup","delivery"],"price":"$$","location":{"address1":"1 Front St","address2":"","address3":"","city":"Brooklyn","zip_code":"11201","country":"US","state":"NY","display_address":["1 Front St","Brooklyn, NY 11201"]},"phone":"+17188584300","display_phone":"(718) 858-4300","distance":323.61541267581333},{"id":"j-vsTCIrppw9w7mOB_KHhg","alias":"pizza-loves-sauce-new-york-2","name":"Pizza Loves Sauce","image_url":"https://s3-media2.fl.yelpcdn.com/bphoto/OfskPMiJTOBodntWPi99iQ/o.jpg","is_closed":false,"url":"https://www.yelp.com/biz/pizza-loves-sauce-new-york-2?adjust_creative=XVnp9EtWnu6qdVDNK-fjmw&utm_campaign=yelp_api_v3&utm_medium=api_v3_business_search&utm_source=XVnp9EtWnu6qdVDNK-fjmw","review_count":25,"categories":[{"alias":"pizza","title":"Pizza"}],"rating":5,"coordinates":{"latitude":40.723026,"longitude":-73.989664},"transactions":["pickup","delivery"],"location":{"address1":"147 E Houston St","address2":null,"address3":null,"city":"New York","zip_code":"10002","country":"US","state":"NY","display_address":["147 E Houston St","New York, NY 10002"]},"phone":"+19174561013","display_phone":"(917) 456-1013","distance":1986.6753016046953},{"id":"GRXvvB1OKMuW4XDWEaVAlg","alias":"joes-pizza-brooklyn-8","name":"Joe's Pizza","image_url":"https://s3-media3.fl.yelpcdn.com/bphoto/0WEXB_9LUY86MTKnc2UXug/o.jpg","is_closed":false,"url":"https://www.yelp.com/biz/joes-pizza-brooklyn-8?adjust_creative=XVnp9EtWnu6qdVDNK-fjmw&utm_campaign=yelp_api_v3&utm_medium=api_v3_business_search&utm_source=XVnp9EtWnu6qdVDNK-fjmw","review_count":459,"categories":[{"alias":"pizza","title":"Pizza"}],"rating":4,"coordinates":{"latitude":40.7168952,"longitude":-73.95892996733771},"transactions":["pickup","delivery"],"price":"$","location":{"address1":"216 Bedford Ave","address2":"","address3":null,"city":"Brooklyn","zip_code":"11249","country":"US","state":"NY","display_address":["216 Bedford Ave","Brooklyn, NY 11249"]},"phone":"+17183882216","display_phone":"(718) 388-2216","distance":3241.190355020982},{"id":"16ZnHpuaaBt92XWeJHCC5A","alias":"olio-e-più-new-york-7","name":"Olio e Più","image_url":"https://s3-media4.fl.yelpcdn.com/bphoto/CUpPgz_Q4QBHxxxxDJJTTA/o.jpg","is_closed":false,"url":"https://www.yelp.com/biz/olio-e-pi%C3%B9-new-york-7?adjust_creative=XVnp9EtWnu6qdVDNK-fjmw&utm_campaign=yelp_api_v3&utm_medium=api_v3_business_search&utm_source=XVnp9EtWnu6qdVDNK-fjmw","review_count":4872,"categories":[{"alias":"pizza","title":"Pizza"},{"alias":"italian","title":"Italian"},{"alias":"cocktailbars","title":"Cocktail Bars"}],"rating":4.5,"coordinates":{"latitude":40.733798036104304,"longitude":-73.99977392649927},"transactions":["pickup","delivery"],"price":"$$","location":{"address1":"3 Greenwich Ave","address2":null,"address3":"","city":"New York","zip_code":"10014","country":"US","state":"NY","display_address":["3 Greenwich Ave","New York, NY 10014"]},"phone":"+12122436546","display_phone":"(212) 243-6546","distance":3186.3804982206075},{"id":"oJ_XSPZFpvIt6rvheSQl7A","alias":"bleecker-street-pizza-new-york","name":"Bleecker Street Pizza","image_url":"https://s3-media3.fl.yelpcdn.com/bphoto/OqM3pHdr9Y6ASzKHuygAXg/o.jpg","is_closed":false,"url":"https://www.yelp.com/biz/bleecker-street-pizza-new-york?adjust_creative=XVnp9EtWnu6qdVDNK-fjmw&utm_campaign=yelp_api_v3&utm_medium=api_v3_business_search&utm_source=XVnp9EtWnu6qdVDNK-fjmw","review_count":2936,"categories":[{"alias":"pizza","title":"Pizza"},{"alias":"italian","title":"Italian"}],"rating":4,"coordinates":{"latitude":40.7320627016512,"longitude":-74.0036552270137},"transactions":["pickup","delivery"],"price":"$","location":{"address1":"69 7th Ave S","address2":null,"address3":"","city":"New York","zip_code":"10014","country":"US","state":"NY","display_address":["69 7th Ave S","New York, NY 10014"]},"phone":"+12129244466","display_phone":"(212) 924-4466","distance":3073.5742196084057},{"id":"4h4Tuuc56YPO6lWfZ1bdSQ","alias":"joes-pizza-new-york-152","name":"Joe's Pizza","image_url":"https://s3-media4.fl.yelpcdn.com/bphoto/sUjegcIlz9bo1s20BqM5KA/o.jpg","is_closed":false,"url":"https://www.yelp.com/biz/joes-pizza-new-york-152?adjust_creative=XVnp9EtWnu6qdVDNK-fjmw&utm_campaign=yelp_api_v3&utm_medium=api_v3_business_search&utm_source=XVnp9EtWnu6qdVDNK-fjmw","review_count":515,"categories":[{"alias":"pizza","title":"Pizza"}],"rating":4,"coordinates":{"latitude":40.7101297729083,"longitude":-74.0077206864953},"transactions":["pickup","delivery"],"price":"$","location":{"address1":"124 Fulton St","address2":"","address3":null,"city":"New York","zip_code":"10038","country":"US","state":"NY","display_address":["124 Fulton St","New York, NY 10038"]},"phone":"+12122670860","display_phone":"(212) 267-0860","distance":1245.9428626945232},{"id":"vpkTNjq9dRh9rT3Nh0pe-A","alias":"nolita-pizza-new-york-2","name":"Nolita Pizza","image_url":"https://s3-media2.fl.yelpcdn.com/bphoto/_BKVVoeQoEeYf0DjWcfArg/o.jpg","is_closed":false,"url":"https://www.yelp.com/biz/nolita-pizza-new-york-2?adjust_creative=XVnp9EtWnu6qdVDNK-fjmw&utm_campaign=yelp_api_v3&utm_medium=api_v3_business_search&utm_source=XVnp9EtWnu6qdVDNK-fjmw","review_count":224,"categories":[{"alias":"pizza","title":"Pizza"},{"alias":"gluten_free","title":"Gluten-Free"},{"alias":"italian","title":"Italian"}],"rating":4.5,"coordinates":{"latitude":40.7208883,"longitude":-73.9962404},"transactions":["pickup","delivery"],"price":"$","location":{"address1":"68 Kenmare St","address2":null,"address3":null,"city":"New York","zip_code":"10012","country":"US","state":"NY","display_address":["68 Kenmare St","New York, NY 10012"]},"phone":"+16468959131","display_phone":"(646) 895-9131","distance":1725.0543086810944},{"id":"-9NO2IDCJMyNGZMAQ1-VQw","alias":"ny-pizza-suprema-new-york","name":"NY Pizza Suprema","image_url":"https://s3-media4.fl.yelpcdn.com/bphoto/EqbDXneMuQP6pw6GemVdQA/o.jpg","is_closed":false,"url":"https://www.yelp.com/biz/ny-pizza-suprema-new-york?adjust_creative=XVnp9EtWnu6qdVDNK-fjmw&utm_campaign=yelp_api_v3&utm_medium=api_v3_business_search&utm_source=XVnp9EtWnu6qdVDNK-fjmw","review_count":2548,"categories":[{"alias":"pizza","title":"Pizza"}],"rating":4.5,"coordinates":{"latitude":40.7502059936523,"longitude":-73.9953231811523},"transactions":["pickup","delivery"],"price":"$","location":{"address1":"413 8th Ave","address2":"","address3":"","city":"New York","zip_code":"10001","country":"US","state":"NY","display_address":["413 8th Ave","New York, NY 10001"]},"phone":"+12125948939","display_phone":"(212) 594-8939","distance":4977.847939164096},{"id":"k3vbv0tbV83IrfaH2Z5t5Q","alias":"maneros-pizza-new-york","name":"Manero's of Mulberry","image_url":"https://s3-media1.fl.yelpcdn.com/bphoto/jHiIWR6M-PnbWp-rcQeiWQ/o.jpg","is_closed":false,"url":"https://www.yelp.com/biz/maneros-pizza-new-york?adjust_creative=XVnp9EtWnu6qdVDNK-fjmw&utm_campaign=yelp_api_v3&utm_medium=api_v3_business_search&utm_source=XVnp9EtWnu6qdVDNK-fjmw","review_count":106,"categories":[{"alias":"pizza","title":"Pizza"}],"rating":4.5,"coordinates":{"latitude":40.717593,"longitude":-73.998396},"transactions":["pickup","delivery"],"location":{"address1":"113 Mulberry St","address2":"","address3":null,"city":"New York","zip_code":"10013","country":"US","state":"NY","display_address":["113 Mulberry St","New York, NY 10013"]},"phone":"+12129616183","display_phone":"(212) 961-6183","distance":1398.553837392163},{"id":"TWH4MjLtN1fKlF-7n6YXHg","alias":"lil-frankies-new-york","name":"Lil Frankie's","image_url":"https://s3-media3.fl.yelpcdn.com/bphoto/t0OsEVlzDWgM_NMGVHmPiA/o.jpg","is_closed":false,"url":"https://www.yelp.com/biz/lil-frankies-new-york?adjust_creative=XVnp9EtWnu6qdVDNK-fjmw&utm_campaign=yelp_api_v3&utm_medium=api_v3_business_search&utm_source=XVnp9EtWnu6qdVDNK-fjmw","review_count":1495,"categories":[{"alias":"pizza","title":"Pizza"},{"alias":"italian","title":"Italian"}],"rating":4,"coordinates":{"latitude":40.723625,"longitude":-73.988555},"transactions":["pickup","delivery"],"price":"$$","location":{"address1":"19 1st Ave","address2":"","address3":"","city":"New York","zip_code":"10003","country":"US","state":"NY","display_address":["19 1st Ave","New York, NY 10003"]},"phone":"+12124204900","display_phone":"(212) 420-4900","distance":2079.0350425992006},{"id":"MwcRbM6lS6_8N67LmyBELA","alias":"99-cent-fresh-pizza-new-york-5","name":"99 Cent Fresh Pizza","image_url":"https://s3-media1.fl.yelpcdn.com/bphoto/6v8b4OPmR5-qcnfloO5jSQ/o.jpg","is_closed":false,"url":"https://www.yelp.com/biz/99-cent-fresh-pizza-new-york-5?adjust_creative=XVnp9EtWnu6qdVDNK-fjmw&utm_campaign=yelp_api_v3&utm_medium=api_v3_business_search&utm_source=XVnp9EtWnu6qdVDNK-fjmw","review_count":713,"categories":[{"alias":"pizza","title":"Pizza"}],"rating":4,"coordinates":{"latitude":40.76458,"longitude":-73.98247},"transactions":["pickup","delivery"],"price":"$","location":{"address1":"1723 Broadway","address2":"","address3":"","city":"New York","zip_code":"10019","country":"US","state":"NY","display_address":["1723 Broadway","New York, NY 10019"]},"phone":"+12122452155","display_phone":"(212) 245-2155","distance":6652.683137648691},{"id":"ApZ_j43jjSZQe2AMDdO46w","alias":"grand-street-pizza-new-york","name":"Grand Street Pizza","image_url":"https://s3-media2.fl.yelpcdn.com/bphoto/8EDsxDQWBUKW66gFtVYcFg/o.jpg","is_closed":false,"url":"https://www.yelp.com/biz/grand-street-pizza-new-york?adjust_creative=XVnp9EtWnu6qdVDNK-fjmw&utm_campaign=yelp_api_v3&utm_medium=api_v3_business_search&utm_source=XVnp9EtWnu6qdVDNK-fjmw","review_count":46,"categories":[{"alias":"pizza","title":"Pizza"}],"rating":4.5,"coordinates":{"latitude":40.7164,"longitude":-73.98767},"transactions":["pickup","delivery"],"location":{"address1":"384 Grand St","address2":"","address3":null,"city":"New York","zip_code":"10002","country":"US","state":"NY","display_address":["384 Grand St","New York, NY 10002"]},"phone":"+16469186194","display_phone":"(646) 918-6194","distance":1350.7240473548673}],"total":12400,"region":{"center":{"longitude":-73.99429321289062,"latitude":40.70544486444615}}}